[{"nombre": "Oh My Dog!", "direcci\u00f3n": ["London", "Greater London", "SE1 8XX", "United Kingdom"], "location": {"type": "Point", "coordinates": [51.505398, -0.118557]}, "Type": ""}, {"nombre": "Dog and Duck", "direcci\u00f3n": ["18 Bateman St", "Soho", "Greater London", "W1D 3AJ", "United Kingdom"], "location": {"type": "Point", "coordinates": [51.51397820877052, -0.13173539160039754]}, "Type": ""}, {"nombre": "Red Dog Saloon", "direcci\u00f3n": ["20 Berwick Street", "London", "Greater London", "W1F 0PY", "United Kingdom"], "location": {"type": "Point", "coordinates": [51.513755, -0.134962]}, "Type": ""}, {"nombre": "Dog London", "direcci\u00f3n": ["5 Langley Street", "London", "Greater London", "WC2H 9JA", "United Kingdom"], "location": {"type": "Point", "coordinates": [51.51302592258045, -0.12506335973739624]}, "Type": ""}, {"nombre": "The Black Dog", "direcci\u00f3n": ["112 Vauxhall Walk", "London", "Greater London", "SE11 5ER", "United Kingdom"], "location": {"type": "Point", "coordinates": [51.48859861451886, -0.12076748467158926]}, "Type": ""}, {"nombre": "The Lazy Dog", "direcci\u00f3n": ["United Kingdom"], "location": {"type": "Point", "coordinates": [51.51760170008453, -0.13054150686650717]}, "Type": ""}, {"nombre": "The Dog House", "direcci\u00f3n": ["293 Kennington Road, Lambeth", "London", "Greater London", "SE11 6BY", "United Kingdom"], "location": {"type": "Point", "coordinates": [51.489184329889454, -0.11080476296183406]}, "Type": ""}, {"nombre": "BrewDog Tower Hill", "direcci\u00f3n": ["21 Great Tower St", "Tower Hill", "Greater London", "EC3R 5AR", "United Kingdom"], "location": {"type": "Point", "coordinates": [51.5099479929403, -0.08097713931763872]}, "Type": ""}, {"nombre": "BrewDog Camden", "direcci\u00f3n": ["113 Bayham St (at Greenland St)", "Camden", "Greater London", "NW1 0AG", "United Kingdom"], "location": {"type": "Point", "coordinates": [51.538332870312985, -0.14092594385147095]}, "Type": ""}, {"nombre": "Battersea Dogs And Cats Home", "direcci\u00f3n": ["4 Battersea Park Rd", "Battersea", "Greater London", "SW8 4AA", "United Kingdom"], "location": {"type": "Point", "coordinates": [51.47839413211259, -0.14493964829943684]}, "Type": ""}, {"nombre": "Black Dog Publishing", "direcci\u00f3n": ["10 A201 (Acton street)", "Camden Town", "Greater London", "WC1 X 9", "United Kingdom"], "location": {"type": "Point", "coordinates": [51.52895748713027, -0.11630891682875984]}, "Type": ""}, {"nombre": "Dylan Dog Cafe", "direcci\u00f3n": ["7 Craven Rd", "Paddington", "Greater London", "W2 3BP", "United Kingdom"], "location": {"type": "Point", "coordinates": [51.514985, -0.176455]}, "Type": ""}, {"nombre": "Master Dog", "direcci\u00f3n": ["78 York St", "London", "Greater London", "W1H 1DP", "United Kingdom"], "location": {"type": "Point", "coordinates": [51.5200167, -0.1624969]}, "Type": ""}, {"nombre": "Dog & Truck", "direcci\u00f3n": ["72 Back Church Lane, Stepney", "London", "Greater London", "E1 1LX", "United Kingdom"], "location": {"type": "Point", "coordinates": [51.5127288, -0.0669104]}, "Type": ""}, {"nombre": "Dog Kennel Hill Wood", "direcci\u00f3n": ["United Kingdom"], "location": {"type": "Point", "coordinates": [51.462599, -0.085423]}, "Type": ""}, {"nombre": "The Dog & Bell", "direcci\u00f3n": ["116 Prince St", "Deptford", "Greater London", "SE8 3JD", "United Kingdom"], "location": {"type": "Point", "coordinates": [51.483382323277205, -0.025795771476234006]}, "Type": ""}, {"nombre": "S.W. London Dog Training and Walking", "direcci\u00f3n": ["19A Parkville Road", "London", "Greater London", "SW6", "United Kingdom"], "location": {"type": "Point", "coordinates": [51.4804551, -0.2057317]}, "Type": ""}, {"nombre": "The Brown Dog", "direcci\u00f3n": ["Cross St", "Barnes", "Greater London", "SW13 0AP", "United Kingdom"], "location": {"type": "Point", "coordinates": [51.468975751029454, -0.2515068694564878]}, "Type": ""}, {"nombre": "Happy Dog Plumbing Limited", "direcci\u00f3n": ["Trident Business Centre, 89, Bickersteth Road, Tooting (89 Bickersteth Road)", "Tooting", "Greater London", "SW17 9SH", "United Kingdom"], "location": {"type": "Point", "coordinates": [51.423875, -0.163392]}, "Type": ""}, {"nombre": "Dog & Fox", "direcci\u00f3n": ["24 High St", "Wimbledon", "Greater London", "SW19 5EA", "United Kingdom"], "location": {"type": "Point", "coordinates": [51.42532783596089, -0.21788095029515447]}, "Type": ""}, {"nombre": "Richmond Dog Walker", "direcci\u00f3n": ["Pagoda Ave.", "Richmond", "Greater London", "TW9 2HQ", "United Kingdom"], "location": {"type": "Point", "coordinates": [51.4676264, -0.29355820000000676]}, "Type": ""}, {"nombre": "Dog & Bull", "direcci\u00f3n": ["24 Surrey St", "Croydon", "Greater London", "CR0 1RG", "United Kingdom"], "location": {"type": "Point", "coordinates": [51.373081096937405, -0.10148720048776085]}, "Type": ""}, {"nombre": "Barking Dog (Wetherspoon)", "direcci\u00f3n": ["61 Station Parade", "Barking", "Greater London", "IG11 8TU", "United Kingdom"], "location": {"type": "Point", "coordinates": [51.539659491513284, 0.08158271943139075]}, "Type": ""}, {"nombre": "Shepherd & Dog", "direcci\u00f3n": ["91 Shepherds Hill", "Harold Wood", "Greater London", "RM3 0NP", "United Kingdom"], "location": {"type": "Point", "coordinates": [51.59148831020534, 0.24490526412642674]}, "Type": ""}, {"nombre": "The Dog and Whistle", "direcci\u00f3n": ["112 Fore St", "Hertford", "Hertfordshire", "SG14 1AB", "United Kingdom"], "location": {"type": "Point", "coordinates": [51.79661147054085, -0.07514052441409448]}, "Type": ""}, {"nombre": "The Olde Dog Inn", "direcci\u00f3n": ["Billericay Rd", "Brentwood", "Essex", "CM13 3SD", "United Kingdom"], "location": {"type": "Point", "coordinates": [51.59367648652511, 0.36837685014105825]}, "Type": ""}, {"nombre": "Shepherd And Dog", "direcci\u00f3n": ["The Street", "Fulking", "West Sussex", "BN5 9LU", "United Kingdom"], "location": {"type": "Point", "coordinates": [50.88819883771664, -0.2287961560873949]}, "Type": ""}]