[{"nombre": "C. I. Guarder\u00eda Patukos", "direcci\u00f3n": ["Calle Mu\u00f1oz Seca 22", "41007 Sevilla Andaluc\u00eda", "Espa\u00f1a"], "location": {"type": "Point", "coordinates": [37.3886927, -5.971362]}, "Type": ""}, {"nombre": "guarderia supli", "direcci\u00f3n": ["Espa\u00f1a"], "location": {"type": "Point", "coordinates": [37.407316305372824, -5.954541118332285]}, "Type": ""}, {"nombre": "CEI Mari Carmen ( guarder\u00eda primer ciclo infantil de 0 a 3 a\u00f1os)", "direcci\u00f3n": ["Calle Elda 1", "41019 Sevilla Andaluc\u00eda", "Espa\u00f1a"], "location": {"type": "Point", "coordinates": [37.412474, -5.924761999999987]}, "Type": ""}, {"nombre": "Guarder\u00eda Petits", "direcci\u00f3n": ["Espa\u00f1a"], "location": {"type": "Point", "coordinates": [37.34686719573591, -6.058790782862052]}, "Type": ""}, {"nombre": "Guarder\u00eda Jard\u00edn De Los Sue\u00f1os", "direcci\u00f3n": ["Calle ANGEL SERRADILLA, 26, LOCAL 4", "21007 Huelva Andaluc\u00eda", "Espa\u00f1a"], "location": {"type": "Point", "coordinates": [37.255409, -6.9310307]}, "Type": ""}, {"nombre": "Guarder\u00eda Jes\u00fas Ni\u00f1o", "direcci\u00f3n": ["Avenida Escultora Miss Whitney, 33", "21003 Huelva Andaluc\u00eda", "Espa\u00f1a"], "location": {"type": "Point", "coordinates": [37.2529241, -6.9411202]}, "Type": ""}, {"nombre": "Guarder\u00eda Teddy", "direcci\u00f3n": ["C. Naranjal de Almagro", "C\u00f3rdoba Andaluc\u00eda", "Espa\u00f1a"], "location": {"type": "Point", "coordinates": [37.87848330852835, -4.790290441418593]}, "Type": ""}]