[{"nombre": "Institut Saint-Dominique", "direcci\u00f3n": ["38 Rue Caporal Claes / Korporaal Claesstraat 38", "1030 Schaarbeek", "Belgi\u00eb"], "location": {"type": "Point", "coordinates": [50.86645656231489, 4.389398478000957]}, "Type": ""}, {"nombre": "Gemeentelijke kleuterschool", "direcci\u00f3n": ["Desmedtstraat", "1930 Zaventem", "Belgi\u00eb"], "location": {"type": "Point", "coordinates": [50.88890848197899, 4.465274921459846]}, "Type": ""}, {"nombre": "@ Sterrenhemel School", "direcci\u00f3n": ["Belgi\u00eb"], "location": {"type": "Point", "coordinates": [50.90968709079074, 4.436887660173429]}, "Type": ""}, {"nombre": "'t Kraaiennestje", "direcci\u00f3n": ["Lijsterbessenbomenlaan 35", "1950", "Belgi\u00eb"], "location": {"type": "Point", "coordinates": [50.86202595983136, 4.457783295813267]}, "Type": ""}, {"nombre": "Baby House", "direcci\u00f3n": ["Av. de l'Aquilonlaan 13", "1200 S-L-Woluwe-S-L", "Belgi\u00eb"], "location": {"type": "Point", "coordinates": [50.852462837061, 4.441012300565422]}, "Type": ""}, {"nombre": "KOV Sint-Jozef school", "direcci\u00f3n": ["Belgi\u00eb"], "location": {"type": "Point", "coordinates": [50.92613542151378, 4.456678731464038]}, "Type": ""}, {"nombre": "KOV Sint-Jozef school Peutie", "direcci\u00f3n": ["Belgi\u00eb"], "location": {"type": "Point", "coordinates": [50.92809098004221, 4.45573460831888]}, "Type": ""}, {"nombre": "Ath\u00e9n\u00e9e Royal de Woluw\u00e9-St.-Lambert", "direcci\u00f3n": ["Koninklijk Atheneumstraat 75/77 Rue de l'Ath\u00e9n\u00e9e Royal", "1200 St.-L-Woluwe-St.-L", "Belgi\u00eb"], "location": {"type": "Point", "coordinates": [50.85028290490088, 4.436582987411088]}, "Type": ""}, {"nombre": "Zonnetje Vilvoorde", "direcci\u00f3n": ["Belgi\u00eb"], "location": {"type": "Point", "coordinates": [50.92749108721481, 4.419276210805313]}, "Type": ""}, {"nombre": "HHC kleuterschool", "direcci\u00f3n": ["Marcelisstraat", "Belgi\u00eb"], "location": {"type": "Point", "coordinates": [50.84792359214233, 4.4825013158904055]}, "Type": ""}, {"nombre": "Ecole Notre-Dame de la Paix", "direcci\u00f3n": ["Rue du Radiumstraat 5", "1030 Schaarbeek", "Belgi\u00eb"], "location": {"type": "Point", "coordinates": [50.852347148700844, 4.390449727862827]}, "Type": ""}, {"nombre": "Ecole Maternelle Et Primaire La Retraite Du Sacr\u00e9 Coeur", "direcci\u00f3n": ["Belgi\u00eb"], "location": {"type": "Point", "coordinates": [50.84899189701891, 4.3880727855113015]}, "Type": ""}, {"nombre": "Basisschool Carolus Magnus", "direcci\u00f3n": ["Place de Jamblinne de Meuxplein 8", "1030 Brussel (Schaarbeek)", "Belgi\u00eb"], "location": {"type": "Point", "coordinates": [50.84786251063152, 4.394847875542582]}, "Type": ""}]