[{"nombre": "Holiday by Obbio", "direcci\u00f3n": ["Jes\u00fas del Gran Poder, 73", "41002 Sevilla Andaluc\u00eda", "Espa\u00f1a"], "location": {"type": "Point", "coordinates": [37.39814096581916, -5.994993069000294]}, "Type": ""}, {"nombre": "Itaca", "direcci\u00f3n": ["C. Amor de Dios, 31", "41002 Sevilla Andaluc\u00eda", "Espa\u00f1a"], "location": {"type": "Point", "coordinates": [37.39525908972922, -5.994521560162863]}, "Type": ""}, {"nombre": "Lux", "direcci\u00f3n": ["Av. Camino de los Descubrimientos", "Sevilla Andaluc\u00eda", "Espa\u00f1a"], "location": {"type": "Point", "coordinates": [37.40610741173454, -5.998141819700103]}, "Type": ""}, {"nombre": "VivaGym", "direcci\u00f3n": ["Avda. Rep\u00fablica Argentina, 27 (Mi\u00f1o)", "41011 Sevilla Andaluc\u00eda", "Espa\u00f1a"], "location": {"type": "Point", "coordinates": [37.37751644726995, -6.002259683932872]}, "Type": ""}, {"nombre": "Antiqvarivm", "direcci\u00f3n": ["Plaza de la Encarnaci\u00f3n, s/n", "41003 Sevilla Andaluc\u00eda", "Espa\u00f1a"], "location": {"type": "Point", "coordinates": [37.39416768191792, -5.9912270723048175]}, "Type": ""}, {"nombre": "Abril Sevilla", "direcci\u00f3n": ["Sevilla Andaluc\u00eda", "Espa\u00f1a"], "location": {"type": "Point", "coordinates": [37.38684988655223, -5.97272060627621]}, "Type": ""}, {"nombre": "Terraza Alfonso", "direcci\u00f3n": ["Plaza de Am\u00e9rica", "41013 Sevilla Andaluc\u00eda", "Espa\u00f1a"], "location": {"type": "Point", "coordinates": [37.370661194702336, -5.988209409842249]}, "Type": ""}, {"nombre": "R\u00edo Latino", "direcci\u00f3n": ["Sevilla Andaluc\u00eda", "Espa\u00f1a"], "location": {"type": "Point", "coordinates": [37.38317983911464, -5.999469580860169]}, "Type": ""}, {"nombre": "Rockefeller", "direcci\u00f3n": ["C. Adriano, 10", "41001 Sevilla Andaluc\u00eda", "Espa\u00f1a"], "location": {"type": "Point", "coordinates": [37.386398627067116, -5.9971997672305655]}, "Type": ""}, {"nombre": "Bestiario", "direcci\u00f3n": ["Sevilla AL", "Espa\u00f1a"], "location": {"type": "Point", "coordinates": [37.37618156145297, -5.9766950696005825]}, "Type": ""}]