[{"nombre": "ZAVO", "direcci\u00f3n": ["Heidestraat 2", "1930 Zaventem", "Belgi\u00eb"], "location": {"type": "Point", "coordinates": [50.88985854752971, 4.472032632425396]}, "Type": ""}, {"nombre": "Harenheideschool", "direcci\u00f3n": ["Verdunstraat 381", "1130 Haren", "Belgi\u00eb"], "location": {"type": "Point", "coordinates": [50.891180238714725, 4.416044355663066]}, "Type": ""}, {"nombre": "Ecole Des Etoiles", "direcci\u00f3n": ["Belgi\u00eb"], "location": {"type": "Point", "coordinates": [50.88299873660442, 4.4155190475984085]}, "Type": ""}, {"nombre": "Gemeentelijke basisschool", "direcci\u00f3n": ["Belgi\u00eb"], "location": {"type": "Point", "coordinates": [50.86545857297428, 4.444708796107466]}, "Type": ""}, {"nombre": "Schobbejakske", "direcci\u00f3n": ["Belgi\u00eb"], "location": {"type": "Point", "coordinates": [50.880162343032985, 4.4059219801479665]}, "Type": ""}, {"nombre": "zavo sterrebeekstraat", "direcci\u00f3n": ["Zaventem", "Belgi\u00eb"], "location": {"type": "Point", "coordinates": [50.874694294675415, 4.4845182306478355]}, "Type": ""}, {"nombre": "MB Training Center", "direcci\u00f3n": ["Sint-Lambrechts-Woluwe", "Belgi\u00eb"], "location": {"type": "Point", "coordinates": [50.860446609039066, 4.428872345376554]}, "Type": ""}, {"nombre": "Eeb2", "direcci\u00f3n": ["Belgi\u00eb"], "location": {"type": "Point", "coordinates": [50.85834498810817, 4.443832355917021]}, "Type": ""}, {"nombre": "Ecole Europeenne", "direcci\u00f3n": ["Sint-Lambrechts-Woluwe", "Belgi\u00eb"], "location": {"type": "Point", "coordinates": [50.85783133489234, 4.44299307752716]}, "Type": ""}, {"nombre": "Montessori International School", "direcci\u00f3n": ["Belgi\u00eb"], "location": {"type": "Point", "coordinates": [50.85730063681327, 4.445501774243306]}, "Type": ""}, {"nombre": "Scholengroep Brussel 8", "direcci\u00f3n": ["Oud-Strijderslaan 200", "1140 Brussel (Evere)", "Belgi\u00eb"], "location": {"type": "Point", "coordinates": [50.86614589748545, 4.409374732344659]}, "Type": ""}, {"nombre": "Brussels American School", "direcci\u00f3n": ["J F Kennedylaan 12", "1933 Sterrebeek", "Belgi\u00eb"], "location": {"type": "Point", "coordinates": [50.863469445827434, 4.481504521572372]}, "Type": ""}, {"nombre": "Onze Lieve Vrouw School", "direcci\u00f3n": ["Evere", "Belgi\u00eb"], "location": {"type": "Point", "coordinates": [50.871142893294405, 4.402287193780791]}, "Type": ""}, {"nombre": "Institut Saint-Dominique", "direcci\u00f3n": ["38 Rue Caporal Claes / Korporaal Claesstraat 38", "1030 Schaarbeek", "Belgi\u00eb"], "location": {"type": "Point", "coordinates": [50.86645656231489, 4.389398478000957]}, "Type": ""}, {"nombre": "ESJDC", "direcci\u00f3n": ["Av. Marcel Thiry 31", "Woluwe", "Belgi\u00eb"], "location": {"type": "Point", "coordinates": [50.85591118143346, 4.4375145342309565]}, "Type": ""}, {"nombre": "BCU", "direcci\u00f3n": ["Rue carli", "1140 Brussel", "Belgi\u00eb"], "location": {"type": "Point", "coordinates": [50.87980217680614, 4.392809664138497]}, "Type": ""}, {"nombre": "Ecole Aurore", "direcci\u00f3n": ["Evere", "Belgi\u00eb"], "location": {"type": "Point", "coordinates": [50.861409990377936, 4.410612046921407]}, "Type": ""}, {"nombre": "Gemeentelijke Basisschool Diegem", "direcci\u00f3n": ["Belgi\u00eb"], "location": {"type": "Point", "coordinates": [50.89610102631913, 4.437933176686817]}, "Type": ""}, {"nombre": "\u00c9cole Clair-Vivre (centre)", "direcci\u00f3n": ["Avenue Notre Dame 40 (Chauss\u00e9e de Louvain)", "1140 Brussel (Evere)", "Belgi\u00eb"], "location": {"type": "Point", "coordinates": [50.870965600027155, 4.396396246381429]}, "Type": ""}, {"nombre": "Ecole Parc Schuman", "direcci\u00f3n": ["15 Clos des Bouleaux Berkenhof 15", "1200 Woluwe", "Belgi\u00eb"], "location": {"type": "Point", "coordinates": [50.85319620903164, 4.435849466127287]}, "Type": ""}, {"nombre": "ZAVO Groenstraat", "direcci\u00f3n": ["Groenstraat 13", "1930 Zaventem", "Belgi\u00eb"], "location": {"type": "Point", "coordinates": [50.88736471658126, 4.467926513892951]}, "Type": ""}, {"nombre": "Institut de La Sainte-Famille d'Helmet", "direcci\u00f3n": ["Rue Chaumontel 4", "Belgi\u00eb"], "location": {"type": "Point", "coordinates": [50.87816132897096, 4.38929087344252]}, "Type": ""}, {"nombre": "Kleuterschool De Zandkorrel", "direcci\u00f3n": ["Melsbroek", "Belgi\u00eb"], "location": {"type": "Point", "coordinates": [50.919593115802726, 4.478176836837116]}, "Type": ""}, {"nombre": "Comit\u00e9 Scolaire Singelijn Asbl", "direcci\u00f3n": ["Avenue Chapelle aux Champs 67 (Boulevard de la Woluwe)", "1200 Sint-Lambrechts-Woluwe", "Belgi\u00eb"], "location": {"type": "Point", "coordinates": [50.850661040929474, 4.443874833837586]}, "Type": ""}, {"nombre": "Bruxelles Formation Construction", "direcci\u00f3n": ["Chauss\u00e9e de Vilvorde 66", "Neder-Over-Hembeek", "Belgi\u00eb"], "location": {"type": "Point", "coordinates": [50.88966117182202, 4.385709443994553]}, "Type": ""}, {"nombre": "Gemeenteschool", "direcci\u00f3n": ["1930 Zaventem", "Belgi\u00eb"], "location": {"type": "Point", "coordinates": [50.888933213360055, 4.465416903054957]}, "Type": ""}, {"nombre": "Institut champagnat", "direcci\u00f3n": ["Square Riga 39 (Ch De Helmet)", "1030 Brussel (Schaarbeek)", "Belgi\u00eb"], "location": {"type": "Point", "coordinates": [50.8740985610552, 4.387675610655899]}, "Type": ""}, {"nombre": "Het Atheneum", "direcci\u00f3n": ["Leopoldstraat 22-30", "1800 Vilvoorde", "Belgi\u00eb"], "location": {"type": "Point", "coordinates": [50.926494615650824, 4.42987927167401]}, "Type": ""}, {"nombre": "B1.03", "direcci\u00f3n": ["Rode Kruislaan 10", "1930 Zaventem", "Belgi\u00eb"], "location": {"type": "Point", "coordinates": [50.887515, 4.468059]}, "Type": ""}, {"nombre": "Drive Academy", "direcci\u00f3n": ["Belgi\u00eb"], "location": {"type": "Point", "coordinates": [50.87322, 4.386749]}, "Type": ""}, {"nombre": "CLL Centres de Langues", "direcci\u00f3n": ["Avenue de Kraainem 61", "1200 Woluw\u00e9-Saint-Lambert", "Belgi\u00eb"], "location": {"type": "Point", "coordinates": [50.84942500091032, 4.460917907050233]}, "Type": ""}, {"nombre": "De Kastanjelaar", "direcci\u00f3n": ["Perksestraat", "1800 Vilvoorde", "Belgi\u00eb"], "location": {"type": "Point", "coordinates": [50.9284125891753, 4.441261181619859]}, "Type": ""}, {"nombre": "Hendrik Conscience Latinis", "direcci\u00f3n": ["Belgi\u00eb"], "location": {"type": "Point", "coordinates": [50.86396236923982, 4.390649790705431]}, "Type": ""}, {"nombre": "Sint-Jozefsschool", "direcci\u00f3n": ["Albert Dumontlaan 1", "1200 Sint-Lambrechts-Woluwe", "Belgi\u00eb"], "location": {"type": "Point", "coordinates": [50.84725546298022, 4.451370643935688]}, "Type": ""}, {"nombre": "Cclm (Cours Communaux De Langues Modernes)", "direcci\u00f3n": ["Belgi\u00eb"], "location": {"type": "Point", "coordinates": [50.84914757567753, 4.424869782960637]}, "Type": ""}, {"nombre": "Floralia", "direcci\u00f3n": ["Floralienstraat", "1200 Sint-Lambrechts-Woluwe", "Belgi\u00eb"], "location": {"type": "Point", "coordinates": [50.84571564941382, 4.432513097941842]}, "Type": ""}, {"nombre": "Hendrik Conscience School", "direcci\u00f3n": ["Brussel (Schaarbeek)", "Belgi\u00eb"], "location": {"type": "Point", "coordinates": [50.86261652425106, 4.391891393803782]}, "Type": ""}, {"nombre": "BS Kasteel Beiaard", "direcci\u00f3n": ["Brussel (Neder-Over-Heembeek)", "Belgi\u00eb"], "location": {"type": "Point", "coordinates": [50.895206, 4.378725]}, "Type": ""}, {"nombre": "singelijn second'air", "direcci\u00f3n": ["Place Des Carabiniers 18a 1030 Schaerbeek", "Belgi\u00eb"], "location": {"type": "Point", "coordinates": [50.854136296894374, 4.403894219007168]}, "Type": ""}, {"nombre": "Haute Ecole Albert Jacquard", "direcci\u00f3n": ["Avenue Compte De Smet De Nayer", "5000 Namur", "Belgique"], "location": {"type": "Point", "coordinates": [50.845172354025514, 4.446815611996576]}, "Type": ""}, {"nombre": "Floralia basisschool", "direcci\u00f3n": ["1200 Sint-Lambrechts-Woluwe", "Belgi\u00eb"], "location": {"type": "Point", "coordinates": [50.84557221050213, 4.432263116526008]}, "Type": ""}, {"nombre": "ZAVO", "direcci\u00f3n": ["Hoogstraat 13", "1930 Zaventem", "Belgi\u00eb"], "location": {"type": "Point", "coordinates": [50.88295806596408, 4.4783064600118445]}, "Type": ""}, {"nombre": "Basisschool Haren Kameleon", "direcci\u00f3n": ["Beemdgracht 2", "1130 Haren", "Belgi\u00eb"], "location": {"type": "Point", "coordinates": [50.89540147625571, 4.418678410778755]}, "Type": ""}, {"nombre": "Irahm", "direcci\u00f3n": ["Avenue Albert Dumontlaan 40", "1200 Woluwe", "Belgi\u00eb"], "location": {"type": "Point", "coordinates": [50.844764814162424, 4.4569199835906845]}, "Type": ""}, {"nombre": "MPIGO Heemschool 1", "direcci\u00f3n": ["Beyzegemstraat 132", "Brussel (Neder-Over-Heembeek)", "Belgi\u00eb"], "location": {"type": "Point", "coordinates": [50.89543634008178, 4.376246442528078]}, "Type": ""}, {"nombre": "Koninklijk Atheneum Zaventem", "direcci\u00f3n": ["Hoogstraat 50", "1930 Zaventem", "Belgi\u00eb"], "location": {"type": "Point", "coordinates": [50.88398556979138, 4.474829527393933]}, "Type": ""}, {"nombre": "BSGO De vleugel", "direcci\u00f3n": ["Spoorwegstraat 27", "1930 Zaventem", "Belgi\u00eb"], "location": {"type": "Point", "coordinates": [50.88413711706123, 4.475746994807859]}, "Type": ""}, {"nombre": "\u00c9cole du Divin Sauveur", "direcci\u00f3n": ["Avenue de Roodebeeklaan 253", "1030 Schaarbeek", "Belgi\u00eb"], "location": {"type": "Point", "coordinates": [50.849659309184254, 4.407362937927246]}, "Type": ""}, {"nombre": "Ecole Maternelle Maria Asumpta", "direcci\u00f3n": ["Brussel", "Belgi\u00eb"], "location": {"type": "Point", "coordinates": [50.89560992518179, 4.373626045592186]}, "Type": ""}, {"nombre": "Coll\u00e8ge Roi Baudouin", "direcci\u00f3n": ["Belgi\u00eb"], "location": {"type": "Point", "coordinates": [50.853307361767946, 4.397389946478379]}, "Type": ""}, {"nombre": "The British International School of Brussels", "direcci\u00f3n": ["Belgi\u00eb"], "location": {"type": "Point", "coordinates": [50.85115711201641, 4.401011033249167]}, "Type": ""}, {"nombre": "Institut Technique Sup\u00e9rieur Cardinal Mercier", "direcci\u00f3n": ["Rue Portaels, 81", "1030 Brussel (Schaarbeek)", "Belgi\u00eb"], "location": {"type": "Point", "coordinates": [50.87303636519542, 4.375498294830322]}, "Type": ""}, {"nombre": "museum M1 horteco", "direcci\u00f3n": ["Belgi\u00eb"], "location": {"type": "Point", "coordinates": [50.935159635209054, 4.442914264256691]}, "Type": ""}, {"nombre": "ZAVO Basisschool Campus Hoogstraat", "direcci\u00f3n": ["Hoogstraat 1", "1930 Zaventem", "Belgi\u00eb"], "location": {"type": "Point", "coordinates": [50.88357790591807, 4.478984160149587]}, "Type": ""}, {"nombre": "Gemeentelijke kleuterschool", "direcci\u00f3n": ["Desmedtstraat", "1930 Zaventem", "Belgi\u00eb"], "location": {"type": "Point", "coordinates": [50.88890848197899, 4.465274921459846]}, "Type": ""}, {"nombre": "lokaal I43", "direcci\u00f3n": ["Vilvoorde", "Belgi\u00eb"], "location": {"type": "Point", "coordinates": [50.93618605639895, 4.444341079853847]}, "Type": ""}, {"nombre": "De Kattepoel", "direcci\u00f3n": ["Rogierlaan 214", "1030 Schaarbeek", "Belgi\u00eb"], "location": {"type": "Point", "coordinates": [50.85757034412, 4.38623417242874]}, "Type": ""}, {"nombre": "Ecole Des Pagodes", "direcci\u00f3n": ["Brussel", "Belgi\u00eb"], "location": {"type": "Point", "coordinates": [50.89562321891875, 4.368119059762476]}, "Type": ""}, {"nombre": "Ecole de Trap\u00e8ze volant de Bruxelles", "direcci\u00f3n": ["57 Grande Rue au Bois / Grote Bosstraat 57", "1030 Schaarbeek", "Belgi\u00eb"], "location": {"type": "Point", "coordinates": [50.85618821771118, 4.3858749725237836]}, "Type": ""}, {"nombre": "Ath\u00e9n\u00e9e Fernand Blum", "direcci\u00f3n": ["Avenue de Roodebeeklaan 59", "1030", "Belgi\u00eb"], "location": {"type": "Point", "coordinates": [50.848354535017044, 4.39878537345993]}, "Type": ""}, {"nombre": "brussel", "direcci\u00f3n": ["Belgi\u00eb"], "location": {"type": "Point", "coordinates": [50.853164332736256, 4.389305377977535]}, "Type": ""}, {"nombre": "Ecole Communale 13", "direcci\u00f3n": ["103 avenue de roodebbej", "Schaerbeek", "Belgi\u00eb"], "location": {"type": "Point", "coordinates": [50.8475744336639, 4.398515314074982]}, "Type": ""}, {"nombre": "De Windroos", "direcci\u00f3n": ["C.Peetersstraat 6", "1830 Machelen", "Belgi\u00eb"], "location": {"type": "Point", "coordinates": [50.91228491750983, 4.435232457887825]}, "Type": ""}, {"nombre": "Seris Security", "direcci\u00f3n": ["Telecomlaan 8", "1831 Diegem", "Belgi\u00eb"], "location": {"type": "Point", "coordinates": [50.88360046198223, 4.441575394061416]}, "Type": ""}, {"nombre": "Institut de la Vierge Fid\u00e8le", "direcci\u00f3n": ["Rue de Linthout", "1030 Schaarbeek", "Belgi\u00eb"], "location": {"type": "Point", "coordinates": [50.84674185959428, 4.39654852763211]}, "Type": ""}, {"nombre": "De Weg-Wijzer", "direcci\u00f3n": ["Sint-Vincentiusstraat 29", "1140 Brussel (Evere)", "Belgi\u00eb"], "location": {"type": "Point", "coordinates": [50.88017993445158, 4.40545289005927]}, "Type": ""}, {"nombre": "Preau 5-6-7", "direcci\u00f3n": ["Avenue Oscar Jespers 75", "1200 Sint-Lambrechts-Woluwe", "Belgi\u00eb"], "location": {"type": "Point", "coordinates": [50.85828931725633, 4.443498448592032]}, "Type": ""}, {"nombre": "BS De weg-wijzer", "direcci\u00f3n": ["Belgi\u00eb"], "location": {"type": "Point", "coordinates": [50.8802935991031, 4.404841661453247]}, "Type": ""}, {"nombre": "GBS De Klimboom", "direcci\u00f3n": ["Emiel Bricoutlaan 61", "1950 Kraainem", "Belgi\u00eb"], "location": {"type": "Point", "coordinates": [50.862043498259276, 4.458930424772512]}, "Type": ""}, {"nombre": "ERIP / GIP", "direcci\u00f3n": ["Oud-Strijderslaan 190 Avenue des Anciens Combattants", "1140 Evere", "Belgi\u00eb"], "location": {"type": "Point", "coordinates": [50.86541441989589, 4.4108679519818494]}, "Type": ""}, {"nombre": "Victor Horta", "direcci\u00f3n": ["Oudstrijderslaan 200", "1140 Evere", "Belgi\u00eb"], "location": {"type": "Point", "coordinates": [50.86609326674047, 4.409316112789193]}, "Type": ""}, {"nombre": "Sint-Jozefschool", "direcci\u00f3n": ["Belgi\u00eb"], "location": {"type": "Point", "coordinates": [50.87763341742507, 4.403380541706629]}, "Type": ""}, {"nombre": "Ecole communale \"La Source\"", "direcci\u00f3n": ["rue du Doolegt, 6", "1140 Evere", "Belgi\u00eb"], "location": {"type": "Point", "coordinates": [50.87776073213127, 4.396842744000253]}, "Type": ""}, {"nombre": "'T martijntje", "direcci\u00f3n": ["Belgi\u00eb"], "location": {"type": "Point", "coordinates": [50.88303045386221, 4.479268469052293]}, "Type": ""}, {"nombre": "\u00c9cole Saint Nicolas", "direcci\u00f3n": ["Rue L\u00e9on XIII, 13", "1120 Brussel", "Belgi\u00eb"], "location": {"type": "Point", "coordinates": [50.90331196252241, 4.40227121535158]}, "Type": ""}, {"nombre": "Notre Dame Immaculee", "direcci\u00f3n": ["Belgi\u00eb"], "location": {"type": "Point", "coordinates": [50.87035847314458, 4.401447241251675]}, "Type": ""}, {"nombre": "\u00c9cole Diabolo", "direcci\u00f3n": ["Belgi\u00eb"], "location": {"type": "Point", "coordinates": [50.8559043029355, 4.460462541312613]}, "Type": ""}, {"nombre": "Gemeentelijke Basisschool Everheide", "direcci\u00f3n": ["Windmolenstraat 39 Rue du Moulin \u00e0 Vent", "1140 Evere", "Belgi\u00eb"], "location": {"type": "Point", "coordinates": [50.873726338008396, 4.396732143296573]}, "Type": ""}, {"nombre": "Heilig Hart van Maria Instituut", "direcci\u00f3n": ["Belgi\u00eb"], "location": {"type": "Point", "coordinates": [50.86146048409661, 4.4118782735267565]}, "Type": ""}, {"nombre": "Ecole Diabolo", "direcci\u00f3n": ["Belgi\u00eb"], "location": {"type": "Point", "coordinates": [50.85530114745757, 4.460035142511717]}, "Type": ""}, {"nombre": "Ath\u00e9n\u00e9e Royal de Woluw\u00e9-St.-Lambert", "direcci\u00f3n": ["Koninklijk Atheneumstraat 75/77 Rue de l'Ath\u00e9n\u00e9e Royal", "1200 St.-L-Woluwe-St.-L", "Belgi\u00eb"], "location": {"type": "Point", "coordinates": [50.85028290490088, 4.436582987411088]}, "Type": ""}, {"nombre": "Ecole primaire de Heembeek", "direcci\u00f3n": ["Rue des Trois Pertuis, 4", "1120 Brussel", "Belgi\u00eb"], "location": {"type": "Point", "coordinates": [50.894967088440445, 4.390668869018555]}, "Type": ""}, {"nombre": "'t Kraaiennestje", "direcci\u00f3n": ["Lijsterbessenbomenlaan 35", "1950", "Belgi\u00eb"], "location": {"type": "Point", "coordinates": [50.86202595983136, 4.457783295813267]}, "Type": ""}, {"nombre": "Institut Sup\u00e9rieur Parnasse Deux Alice", "direcci\u00f3n": ["Avenue Emmanuel Mounierlaan 84", "1200 Woluwe", "Belgi\u00eb"], "location": {"type": "Point", "coordinates": [50.85099583248955, 4.456961039758264]}, "Type": ""}, {"nombre": "Sbs De Doening", "direcci\u00f3n": ["Belgi\u00eb"], "location": {"type": "Point", "coordinates": [50.92608506609067, 4.45475438122352]}, "Type": ""}, {"nombre": "De Doening", "direcci\u00f3n": ["Aarschotsestraat 94", "1800 Peutie", "Belgi\u00eb"], "location": {"type": "Point", "coordinates": [50.9260521161602, 4.45614971332462]}, "Type": ""}, {"nombre": "KTA Campus De Brug", "direcci\u00f3n": ["Vaartstraat 1", "1800 Vilvoorde", "Belgi\u00eb"], "location": {"type": "Point", "coordinates": [50.92763426752515, 4.422189823129216]}, "Type": ""}, {"nombre": "Basisschool Heilige Familie", "direcci\u00f3n": ["Helmetsesteenweg 216", "1030 Brussel (Schaarbeek)", "Belgi\u00eb"], "location": {"type": "Point", "coordinates": [50.872926863575884, 4.388291642496938]}, "Type": ""}, {"nombre": "Heilige Familie", "direcci\u00f3n": ["Helmetsesteenweg 216", "1030 Brussel (Schaarbeek)", "Belgi\u00eb"], "location": {"type": "Point", "coordinates": [50.873318217841344, 4.387878047489974]}, "Type": ""}, {"nombre": "Institut de l'Angelus", "direcci\u00f3n": ["chauss\u00e9e de roodebeek 586", "1200 Sint-Lambrechts-Woluwe-Saint-L", "Belgi\u00eb"], "location": {"type": "Point", "coordinates": [50.8508100851985, 4.411870348261143]}, "Type": ""}, {"nombre": "de lampion", "direcci\u00f3n": ["Belgi\u00eb"], "location": {"type": "Point", "coordinates": [50.927401, 4.454999]}, "Type": ""}, {"nombre": "Sint Lambertus Lagere School", "direcci\u00f3n": ["Belgi\u00eb"], "location": {"type": "Point", "coordinates": [50.88007260030604, 4.507179635149383]}, "Type": ""}, {"nombre": "Eglise Sainte Famille", "direcci\u00f3n": ["Heilige-Familieplein", "1200 Woluwe-Saint-Lambert", "Belgi\u00eb"], "location": {"type": "Point", "coordinates": [50.8500778231365, 4.428143005164184]}, "Type": ""}, {"nombre": "Prinses Paolaschool", "direcci\u00f3n": ["Heilige-Familieplein 1 Place de la Sainte-Famille", "1200 Woluwe", "Belgi\u00eb"], "location": {"type": "Point", "coordinates": [50.849568878617625, 4.42637246350541]}, "Type": ""}, {"nombre": "Ecole 16", "direcci\u00f3n": ["Belgi\u00eb"], "location": {"type": "Point", "coordinates": [50.858787455023496, 4.40119928001203]}, "Type": ""}, {"nombre": "CLB Vilvoorde", "direcci\u00f3n": ["Belgi\u00eb"], "location": {"type": "Point", "coordinates": [50.92609789011707, 4.422197747537948]}, "Type": ""}, {"nombre": "Ecole Princesse Paola", "direcci\u00f3n": ["Belgi\u00eb"], "location": {"type": "Point", "coordinates": [50.84917057235408, 4.42566454521544]}, "Type": ""}, {"nombre": "Kinderkoppen", "direcci\u00f3n": ["Belgi\u00eb"], "location": {"type": "Point", "coordinates": [50.92384998331929, 4.41181034888338]}, "Type": ""}, {"nombre": "Basisschool Heilig-Hart", "direcci\u00f3n": ["Thaelstraat 7", "1800 Vilvoorde", "Belgi\u00eb"], "location": {"type": "Point", "coordinates": [50.924505243221525, 4.412804817236278]}, "Type": ""}, {"nombre": "Institut Sainte Marie - Meiser", "direcci\u00f3n": ["Rue Henri Chom\u00e9", "1030 Brussel (Schaarbeek)", "Belgi\u00eb"], "location": {"type": "Point", "coordinates": [50.85741874203596, 4.400655890778854]}, "Type": ""}]