[{"nombre": "Ciudad Deportiva Carranque", "direcci\u00f3n": ["Av. de Santa Rosa de Lima, 7 (Av. del Obispo \u00c1ngel Herrera Oria)", "29007 M\u00e1laga Andaluc\u00eda", "Espa\u00f1a"], "location": {"type": "Point", "coordinates": [36.72069769542809, -4.4479286670684814]}, "Type": ""}, {"nombre": "Sociedad Excursionista de M\u00e1laga", "direcci\u00f3n": ["C/ Rep\u00fablica Argentina, 9", "29016 M\u00e1laga Andaluc\u00eda", "Espa\u00f1a"], "location": {"type": "Point", "coordinates": [36.72662273091198, -4.399616718292236]}, "Type": ""}, {"nombre": "Parque del Morlaco", "direcci\u00f3n": ["Camino de la Desviaci\u00f3n", "29018 M\u00e1laga Andaluc\u00eda", "Espa\u00f1a"], "location": {"type": "Point", "coordinates": [36.7269789695211, -4.38645275005191]}, "Type": ""}, {"nombre": "Colegio de Economistas de Malaga", "direcci\u00f3n": ["Espa\u00f1a"], "location": {"type": "Point", "coordinates": [36.722031, -4.419084]}, "Type": ""}, {"nombre": "Colegio Nuestra Senora De La Victoria (hermanos Maristas)", "direcci\u00f3n": ["Calle Victoria 102 (Plaza De La Victoria)", "M\u00e1laga Andaluc\u00eda", "Espa\u00f1a"], "location": {"type": "Point", "coordinates": [36.72607379869223, -4.413655076782429]}, "Type": ""}, {"nombre": "Colegio Maristas", "direcci\u00f3n": ["C/ Victoria, 108", "29012 M\u00e1laga Andaluc\u00eda", "Espa\u00f1a"], "location": {"type": "Point", "coordinates": [36.72605875002498, -4.413503122319459]}, "Type": ""}, {"nombre": "Colegio de Abogados de M\u00e1laga", "direcci\u00f3n": ["Paseo de la Farola, 13", "29016 M\u00e1laga Andaluc\u00eda", "Espa\u00f1a"], "location": {"type": "Point", "coordinates": [36.71606466010096, -4.412854808579611]}, "Type": ""}, {"nombre": "Colegio de Administradores de Fincas de M\u00e1laga y Melilla", "direcci\u00f3n": ["Compositor Lehmberg Ruiz, 10 (1\u00ba 3 - Edificio Galaxia)", "29007 M\u00e1laga Andaluc\u00eda", "Espa\u00f1a"], "location": {"type": "Point", "coordinates": [36.71832779519847, -4.432512452947656]}, "Type": ""}, {"nombre": "Colegio C.E.I.P. L\u00e9x Flavia Malacitana", "direcci\u00f3n": ["Pz. L\u00e9x Flavia Malacitana", "29013 M\u00e1laga Andaluc\u00eda", "Espa\u00f1a"], "location": {"type": "Point", "coordinates": [36.73013100594869, -4.417577]}, "Type": ""}, {"nombre": "Colegio Salesianos San Bartolome", "direcci\u00f3n": ["Espa\u00f1a"], "location": {"type": "Point", "coordinates": [36.73115127160589, -4.421652765625761]}, "Type": ""}, {"nombre": "Colegio P\u00fablico Pablo Ruiz Picasso", "direcci\u00f3n": ["C/ Honduras, 1", "29007 M\u00e1laga Andaluc\u00eda", "Espa\u00f1a"], "location": {"type": "Point", "coordinates": [36.720396701745365, -4.43472146987915]}, "Type": ""}, {"nombre": "Colegio SAFA El Monte", "direcci\u00f3n": ["Calle Ferr\u00e1ndiz, 54-56", "29012 M\u00e1laga Andaluc\u00eda", "Espa\u00f1a"], "location": {"type": "Point", "coordinates": [36.7270829506378, -4.409395489205674]}, "Type": ""}, {"nombre": "Colegio San Manuel", "direcci\u00f3n": ["Fernan Nu\u00f1ez", "29002 M\u00e1laga Andaluc\u00eda", "Espa\u00f1a"], "location": {"type": "Point", "coordinates": [36.71045183676153, -4.429515979943418]}, "Type": ""}, {"nombre": "Colegio de Gestores Administrativos de M\u00e1laga", "direcci\u00f3n": ["M\u00e1laga Andaluc\u00eda", "Espa\u00f1a"], "location": {"type": "Point", "coordinates": [36.7152441102237, -4.4373109205646255]}, "Type": ""}, {"nombre": "Colegio Manuel Siurot", "direcci\u00f3n": ["C/ Bar\u00f3n de Les, 8", "29010 M\u00e1laga Andaluc\u00eda", "Espa\u00f1a"], "location": {"type": "Point", "coordinates": [36.727646935829995, -4.438739660987787]}, "Type": ""}, {"nombre": "Colegio Virgen Inmaculada Santa Maria de la Victoria (Gamarra)", "direcci\u00f3n": ["Espa\u00f1a"], "location": {"type": "Point", "coordinates": [36.72381618569289, -4.441118414316497]}, "Type": ""}, {"nombre": "Colegio Gamarra", "direcci\u00f3n": ["Espa\u00f1a"], "location": {"type": "Point", "coordinates": [36.7262893035046, -4.440526419181033]}, "Type": ""}, {"nombre": "Colegio P\u00fablico Severo Ochoa", "direcci\u00f3n": ["Calle de Luis Cernuda, 1", "29010 M\u00e1laga Andaluc\u00eda", "Espa\u00f1a"], "location": {"type": "Point", "coordinates": [36.73189866040882, -4.449919062050546]}, "Type": ""}, {"nombre": "Colegio Oficial de M\u00e9dicos", "direcci\u00f3n": ["C/ Curtidores, 1", "29006 M\u00e1laga Andaluc\u00eda", "Espa\u00f1a"], "location": {"type": "Point", "coordinates": [36.70437393730221, -4.452181304061661]}, "Type": ""}, {"nombre": "Colegio de la Asunci\u00f3n", "direcci\u00f3n": ["C/ Manuel del Palacio", "29017 M\u00e1laga Andaluc\u00eda", "Espa\u00f1a"], "location": {"type": "Point", "coordinates": [36.724719259735664, -4.371792236228812]}, "Type": ""}]