[{"nombre": "ANDigital", "direcci\u00f3n": ["Golden Cross House", "London", "Greater London", "WC2N 4JF", "United Kingdom"], "location": {"type": "Point", "coordinates": [51.50862869505844, -0.12576694580534234]}, "Type": ""}, {"nombre": "Tectura", "direcci\u00f3n": ["7 St. Martins Place", "London", "Greater London", "United Kingdom"], "location": {"type": "Point", "coordinates": [51.5094275854566, -0.12738864922800106]}, "Type": ""}, {"nombre": "CityHawk's nest", "direcci\u00f3n": ["27-31 Charing Cross Road", "London", "Greater London", "WC2H 0AU", "United Kingdom"], "location": {"type": "Point", "coordinates": [51.510612141783206, -0.12845635414123535]}, "Type": ""}, {"nombre": "NaturalMotion Games", "direcci\u00f3n": ["6 Agar St (Strand)", "London", "Greater London", "United Kingdom"], "location": {"type": "Point", "coordinates": [51.51016340886688, -0.12413442104986613]}, "Type": ""}, {"nombre": "Venda Ltd", "direcci\u00f3n": ["101 St Martins Ln.", "London", "Greater London", "WC2N 4AZ", "United Kingdom"], "location": {"type": "Point", "coordinates": [51.51043041705702, -0.12737944348111221]}, "Type": ""}, {"nombre": "Socialyse", "direcci\u00f3n": ["60 St Martins Lane", "London", "Greater London", "WC2N 4JS", "United Kingdom"], "location": {"type": "Point", "coordinates": [51.51118688884143, -0.1270540594786725]}, "Type": ""}, {"nombre": "PubMatic Europe", "direcci\u00f3n": ["33 Glasshouse (4th Floor)", "London", "Greater London", "United Kingdom"], "location": {"type": "Point", "coordinates": [51.50963968773928, -0.13270053740033508]}, "Type": ""}, {"nombre": "Aframe", "direcci\u00f3n": ["4-5 Great Newport Street", "London", "Greater London", "WC2H 7JB", "United Kingdom"], "location": {"type": "Point", "coordinates": [51.51192075613831, -0.1273251434209321]}, "Type": ""}, {"nombre": "HotelTonight European HQ", "direcci\u00f3n": ["146 -148 Clerkenwell Road", "EC1R 5DG", "United Kingdom"], "location": {"type": "Point", "coordinates": [51.51123793552026, -0.12350468463695988]}, "Type": ""}, {"nombre": "Marin Software", "direcci\u00f3n": ["1st Floor, Orion House (5 Upper St. Martin's Lane)", "London", "Greater London", "WC2E 9AB", "United Kingdom"], "location": {"type": "Point", "coordinates": [51.512400016202335, -0.12714972695882243]}, "Type": ""}, {"nombre": "Digital Animal", "direcci\u00f3n": ["26-27 Southampton Street (Covent Garden)", "London", "Greater London", "WC2E 7RS", "United Kingdom"], "location": {"type": "Point", "coordinates": [51.51127126178816, -0.12238008398598046]}, "Type": ""}, {"nombre": "Iponweb", "direcci\u00f3n": ["16 Garrick St", "London", "Greater London", "WC2E 9BA", "United Kingdom"], "location": {"type": "Point", "coordinates": [51.512323389927346, -0.12551647365435986]}, "Type": ""}, {"nombre": "Ciklum UK", "direcci\u00f3n": ["22 Long Acre", "London", "Greater London", "United Kingdom"], "location": {"type": "Point", "coordinates": [51.51241770862598, -0.1257618167450139]}, "Type": ""}, {"nombre": "Vitrue", "direcci\u00f3n": ["22 Long Acre (Mercer St)", "City of Westminster", "Greater London", "WC2E 9LY", "United Kingdom"], "location": {"type": "Point", "coordinates": [51.51247862685432, -0.12553872269186786]}, "Type": ""}, {"nombre": "Socialbakers", "direcci\u00f3n": ["22 Long Acre", "London", "Greater London", "United Kingdom"], "location": {"type": "Point", "coordinates": [51.512566989012484, -0.12540548930849515]}, "Type": ""}, {"nombre": "Snap", "direcci\u00f3n": ["77 Shaftsbury Avenue", "London", "Greater London", "W1D 5DX", "United Kingdom"], "location": {"type": "Point", "coordinates": [51.512427, -0.131174]}, "Type": ""}, {"nombre": "VisualDNA HQ", "direcci\u00f3n": ["London", "Greater London", "United Kingdom"], "location": {"type": "Point", "coordinates": [51.51337560058854, -0.12958517319595583]}, "Type": ""}, {"nombre": "Onfido", "direcci\u00f3n": ["40 Long Acre", "London", "Greater London", "WC2E 9LG", "United Kingdom"], "location": {"type": "Point", "coordinates": [51.5130319047044, -0.12413366200157411]}, "Type": ""}, {"nombre": "HMA! HQ", "direcci\u00f3n": ["7 Moor Street", "London", "Greater London", "W1D 5NB", "United Kingdom"], "location": {"type": "Point", "coordinates": [51.513486057791205, -0.12998028344534224]}, "Type": ""}, {"nombre": "Syncapse", "direcci\u00f3n": ["25 Wellington St.", "London", "Greater London", "WC2E 7DA", "United Kingdom"], "location": {"type": "Point", "coordinates": [51.512077699553984, -0.12059957381860291]}, "Type": ""}, {"nombre": "Somerset House", "direcci\u00f3n": ["Strand", "London", "Greater London", "WC2R 1LA", "United Kingdom"], "location": {"type": "Point", "coordinates": [51.51078575130956, -0.11789917945861816]}, "Type": ""}, {"nombre": "Top Left Design", "direcci\u00f3n": ["12 Bourchier St (Wardour Street)", "London", "Greater London", "W1D 4HZ", "United Kingdom"], "location": {"type": "Point", "coordinates": [51.5129324539463, -0.133046109610238]}, "Type": ""}, {"nombre": "Somo HQ", "direcci\u00f3n": ["41 Great Pulteney St", "London", "Greater London", "W1F 9NZ", "United Kingdom"], "location": {"type": "Point", "coordinates": [51.51164211666667, -0.1355685125]}, "Type": ""}, {"nombre": "Facebook Shaftesbury", "direcci\u00f3n": ["125 Shaftesbury Avenue", "London", "Greater London", "W C2H", "United Kingdom"], "location": {"type": "Point", "coordinates": [51.513858, -0.128574]}, "Type": ""}, {"nombre": "Hailo", "direcci\u00f3n": ["Somerset House, The Strand", "London", "Greater London", "WC2R 1LA", "United Kingdom"], "location": {"type": "Point", "coordinates": [51.51085826636449, -0.1185594892358971]}, "Type": ""}, {"nombre": "Ooyala", "direcci\u00f3n": ["125 Shaftesbury Avenue", "London", "Greater London", "United Kingdom"], "location": {"type": "Point", "coordinates": [51.51405436697994, -0.12824192643553858]}, "Type": ""}, {"nombre": "Telef\u00f3nica", "direcci\u00f3n": ["20 Air St", "London", "Greater London", "W1B 5AN", "United Kingdom"], "location": {"type": "Point", "coordinates": [51.510654172551874, -0.13632704308920546]}, "Type": ""}, {"nombre": "Soho Broadcast", "direcci\u00f3n": ["23-24 Greek St", "London", "Greater London", "W1D 4DZ", "United Kingdom"], "location": {"type": "Point", "coordinates": [51.514352, -0.130973]}, "Type": ""}, {"nombre": "Haydonn HQ", "direcci\u00f3n": ["United Kingdom"], "location": {"type": "Point", "coordinates": [51.51457390964876, -0.12535141050348617]}, "Type": ""}, {"nombre": "Drury House", "direcci\u00f3n": ["34-43 Russell Street", "Greater London", "United Kingdom"], "location": {"type": "Point", "coordinates": [51.51348947587661, -0.12034314294581254]}, "Type": ""}, {"nombre": "Beamly", "direcci\u00f3n": ["Drury Ho., 34-43 Russell St.", "Covent Garden", "Greater London", "WC2B 5HA", "United Kingdom"], "location": {"type": "Point", "coordinates": [51.51351422233318, -0.1203577175611789]}, "Type": ""}, {"nombre": "BEING", "direcci\u00f3n": ["81 Dean St", "United Kingdom"], "location": {"type": "Point", "coordinates": [51.514317792149036, -0.13307305221256133]}, "Type": ""}, {"nombre": "Electric Dialogue", "direcci\u00f3n": ["54 Broadwick Street", "London", "Greater London", "United Kingdom"], "location": {"type": "Point", "coordinates": [51.513288, -0.136755]}, "Type": ""}, {"nombre": "Steely Eye Digital Media", "direcci\u00f3n": ["Crown House, 143-147 Regent St", "London", "Greater London", "W1B 4JB", "United Kingdom"], "location": {"type": "Point", "coordinates": [51.51129322151637, -0.1393890380859375]}, "Type": ""}, {"nombre": "Palantir", "direcci\u00f3n": ["20 Soho Square", "London", "Greater London", "W1D 3QW", "United Kingdom"], "location": {"type": "Point", "coordinates": [51.515771009321355, -0.13158278622527664]}, "Type": ""}, {"nombre": "Buzz Radar", "direcci\u00f3n": ["2 Sheraton Street (Wardour)", "London", "Greater London", "NW1 8LH", "United Kingdom"], "location": {"type": "Point", "coordinates": [51.51502562473659, -0.13448059558868408]}, "Type": ""}, {"nombre": "HouseTrip HQ", "direcci\u00f3n": ["5th & 6th Floor. Corinthian House (279 Tottenham Court Road)", "London", "Greater London", "W1T 7RJ", "United Kingdom"], "location": {"type": "Point", "coordinates": [51.516583458318586, -0.129799591126679]}, "Type": ""}, {"nombre": "Shoutlet London", "direcci\u00f3n": ["18 Soho Square", "London", "Greater London", "W1D 3QL", "United Kingdom"], "location": {"type": "Point", "coordinates": [51.51579343362533, -0.13185739517211914]}, "Type": ""}, {"nombre": "Black Swan Data", "direcci\u00f3n": ["11 York Road, Tower Building, 4th Floor", "London", "Greater London", "SE1 7NX", "United Kingdom"], "location": {"type": "Point", "coordinates": [51.504185567467694, -0.11426680992589565]}, "Type": ""}, {"nombre": "Topspin UK", "direcci\u00f3n": ["Centre Point", "Camden Town", "Greater London", "United Kingdom"], "location": {"type": "Point", "coordinates": [51.516193, -0.129305]}, "Type": ""}, {"nombre": "MUBI", "direcci\u00f3n": ["1 Newburgh Street", "London", "Greater London", "W1F 7RB", "United Kingdom"], "location": {"type": "Point", "coordinates": [51.51331676660278, -0.1383909908285852]}, "Type": ""}, {"nombre": "Dawn Capital", "direcci\u00f3n": ["21-22 Warwick Street", "W1B 5NE", "United Kingdom"], "location": {"type": "Point", "coordinates": [51.51170517475265, -0.1383057568852829]}, "Type": ""}, {"nombre": "Magic Lab HQ", "direcci\u00f3n": ["2 Sheraton St", "London", "Greater London", "W1F 8BH", "United Kingdom"], "location": {"type": "Point", "coordinates": [51.51530658527226, -0.13463844101204778]}, "Type": ""}, {"nombre": "YouTube Space London", "direcci\u00f3n": ["123 St. Giles High St", "Greater London", "W C2H", "United Kingdom"], "location": {"type": "Point", "coordinates": [51.51588555159659, -0.12707129559472166]}, "Type": ""}, {"nombre": "Kenshoo", "direcci\u00f3n": ["4th floor, 51 marlborough st", "London", "Greater London", "W1T 2BU", "United Kingdom"], "location": {"type": "Point", "coordinates": [51.51455974780214, -0.13788745833202312]}, "Type": ""}, {"nombre": "BraveNewTalent HQ", "direcci\u00f3n": ["43-49 Parker St (at Newton St)", "London", "Greater London", "WC2B 5PS", "United Kingdom"], "location": {"type": "Point", "coordinates": [51.516341385470476, -0.12080270669744769]}, "Type": ""}, {"nombre": "InMobi", "direcci\u00f3n": ["6 & 7th Floor, 265 Strand", "London", "Greater London", "WC2R 1BH", "United Kingdom"], "location": {"type": "Point", "coordinates": [51.51349844144678, -0.11461551152631952]}, "Type": ""}, {"nombre": "Search Marketing Angels LTD", "direcci\u00f3n": ["40 Bloomsbury Way", "London", "Greater London", "WC1A 2SE", "United Kingdom"], "location": {"type": "Point", "coordinates": [51.5174915669078, -0.125148517035122]}, "Type": ""}, {"nombre": "Criteo - London", "direcci\u00f3n": ["10 Bloomsbury Way", "London", "Greater London", "WC1A 2SH", "United Kingdom"], "location": {"type": "Point", "coordinates": [51.51744671996033, -0.12406502993750945]}, "Type": ""}, {"nombre": "Amazon AdSales UK", "direcci\u00f3n": ["85 Newman St, 2nd Floor", "London", "Greater London", "W1T 3EU", "United Kingdom"], "location": {"type": "Point", "coordinates": [51.516671150472355, -0.13507863659774583]}, "Type": ""}, {"nombre": "MarketInvoice", "direcci\u00f3n": ["48-50 Scrutton Street", "London", "Greater London", "EC2A 4XQ", "United Kingdom"], "location": {"type": "Point", "coordinates": [51.51732868319733, -0.12218230244069735]}, "Type": ""}, {"nombre": "Sevenval", "direcci\u00f3n": ["51-57 Holden House (Rathbone Place)", "London", "Greater London", "W1T 1JU", "United Kingdom"], "location": {"type": "Point", "coordinates": [51.51660253575123, -0.1336033835742328]}, "Type": ""}, {"nombre": "MetaBroadcast", "direcci\u00f3n": ["34 Bloomsbury Way (Bury Place)", "London", "Greater London", "WC1A 2SA", "United Kingdom"], "location": {"type": "Point", "coordinates": [51.517767906188965, -0.1238107681274414]}, "Type": ""}, {"nombre": "Move Guides", "direcci\u00f3n": ["6 Ramillies street", "London", "Greater London", "W1F 7TY", "United Kingdom"], "location": {"type": "Point", "coordinates": [51.51534789107363, -0.13904903865249113]}, "Type": ""}, {"nombre": "Birchbox UK", "direcci\u00f3n": ["21 Hanover St (Regent St)", "London", "Greater London", "W1S 1YU", "United Kingdom"], "location": {"type": "Point", "coordinates": [51.51386721031156, -0.1416313648223877]}, "Type": ""}, {"nombre": "Jinn", "direcci\u00f3n": ["88 Kingsway", "London", "Greater London", "WC2B 6AA", "United Kingdom"], "location": {"type": "Point", "coordinates": [51.51730638035467, -0.12021687882451637]}, "Type": ""}, {"nombre": "Braintree Payments - Europe HQ", "direcci\u00f3n": ["1st Floor, 247 Tottenham Court Road", "London", "Greater London", "United Kingdom"], "location": {"type": "Point", "coordinates": [51.5180856011247, -0.1318158275899433]}, "Type": ""}, {"nombre": "Schibsted Media Group", "direcci\u00f3n": ["2 Great Titchfield Street (Oxford Street)", "London", "Greater London", "W1D 1NN", "United Kingdom"], "location": {"type": "Point", "coordinates": [51.515907, -0.13918889]}, "Type": ""}, {"nombre": "LeWeb London", "direcci\u00f3n": ["Central Hall Westminster (Storey's Gate)", "London", "Greater London", "United Kingdom"], "location": {"type": "Point", "coordinates": [51.49993826665913, -0.12987332272810262]}, "Type": ""}, {"nombre": "The Rubicon Project", "direcci\u00f3n": ["Walmar House, 5TH Floor, 296 Regent Street", "London", "Greater London", "W1B 3HR", "United Kingdom"], "location": {"type": "Point", "coordinates": [51.515529143145095, -0.14019792850137142]}, "Type": ""}, {"nombre": "Princess House", "direcci\u00f3n": ["50-60 Eastcastle St.", "London", "Greater London", "W1W 8EA", "United Kingdom"], "location": {"type": "Point", "coordinates": [51.51644797840936, -0.13865015502765443]}, "Type": ""}, {"nombre": "Facebook", "direcci\u00f3n": ["1 Rathbone Sq", "London", "Greater London", "W1T 1FB", "United Kingdom"], "location": {"type": "Point", "coordinates": [51.516778087222285, -0.13426323321912167]}, "Type": ""}, {"nombre": "Spotify London", "direcci\u00f3n": ["25 Argyll Street", "London", "Greater London", "United Kingdom"], "location": {"type": "Point", "coordinates": [51.51491826675135, -0.14142739336418528]}, "Type": ""}, {"nombre": "Bodymetrics", "direcci\u00f3n": ["25 Newman Street", "London", "Greater London", "W1T 1PN", "United Kingdom"], "location": {"type": "Point", "coordinates": [51.51774294239052, -0.1357412338256836]}, "Type": ""}, {"nombre": "WIREWAX", "direcci\u00f3n": ["London", "Greater London", "United Kingdom"], "location": {"type": "Point", "coordinates": [51.5185707907351, -0.13309121131896973]}, "Type": ""}, {"nombre": "Mishcon De Reya", "direcci\u00f3n": ["Camden Town", "Greater London", "United Kingdom"], "location": {"type": "Point", "coordinates": [51.51683806545138, -0.11998584271843216]}, "Type": ""}, {"nombre": "Espresso Collective", "direcci\u00f3n": ["27 Rathbone St", "London", "Greater London", "W1T 1NH", "United Kingdom"], "location": {"type": "Point", "coordinates": [51.51821027798302, -0.13518333435058594]}, "Type": ""}, {"nombre": "Tigerspike", "direcci\u00f3n": ["Level 4, Kings Court, 2-16 Goodge St. (Tottenham Ct Rd)", "London", "Greater London", "W1T 2QA", "United Kingdom"], "location": {"type": "Point", "coordinates": [51.49948031525509, -0.1406019833198865]}, "Type": ""}, {"nombre": "App Annie", "direcci\u00f3n": ["13-14 Margaret Street", "London", "Greater London", "W1W 8RN", "United Kingdom"], "location": {"type": "Point", "coordinates": [51.51702152651298, -0.14010826158886105]}, "Type": ""}, {"nombre": "Yoyo Wallet", "direcci\u00f3n": ["78 Whitfield St (Goodge St)", "London", "Greater London", "W1T 4EZ", "United Kingdom"], "location": {"type": "Point", "coordinates": [51.519362, -0.13399599999999623]}, "Type": ""}, {"nombre": "LendInvest", "direcci\u00f3n": ["8 Mortimer Street", "London", "Greater London", "W1T 3JJ", "United Kingdom"], "location": {"type": "Point", "coordinates": [51.51862430194401, -0.1377089977934585]}, "Type": ""}, {"nombre": "ubiCabs HQ", "direcci\u00f3n": ["221 Pentonville Rd", "London", "Greater London", "N1 9UZ", "United Kingdom"], "location": {"type": "Point", "coordinates": [51.517566669750266, -0.14063420529980203]}, "Type": ""}, {"nombre": "WhipCar", "direcci\u00f3n": ["4th Floor, Radiant House (36-38 Mortimer St)", "London", "Greater London", "W1W 7RG", "United Kingdom"], "location": {"type": "Point", "coordinates": [51.518031777786774, -0.14003862571973288]}, "Type": ""}, {"nombre": "CloudSense HQ", "direcci\u00f3n": ["Moray House (23-31 Great Titchfield St)", "London", "Greater London", "W1W 7PA", "United Kingdom"], "location": {"type": "Point", "coordinates": [51.517500293335374, -0.1401410919087463]}, "Type": ""}, {"nombre": "We Are London", "direcci\u00f3n": ["5th floor, 232-242 Vauxhall Bridge Road", "London", "Greater London", "SW1V 1AU", "United Kingdom"], "location": {"type": "Point", "coordinates": [51.494141910901384, -0.14048074028954596]}, "Type": ""}, {"nombre": "WeWork", "direcci\u00f3n": ["22 Upper Ground (New Kings Beam House)", "London", "Greater London", "SE1 9PD", "United Kingdom"], "location": {"type": "Point", "coordinates": [51.50831, -0.10717]}, "Type": ""}]