[{"nombre": "B. Braun Medical", "direcci\u00f3n": ["Belgi\u00eb"], "location": {"type": "Point", "coordinates": [50.890351413499125, 4.446509281308168]}, "Type": ""}, {"nombre": "Eggsplore", "direcci\u00f3n": ["Belgi\u00eb"], "location": {"type": "Point", "coordinates": [50.88861480855775, 4.449582621339805]}, "Type": ""}, {"nombre": "LACO Nv", "direcci\u00f3n": ["Woluwelaan 135a", "1831 Machelen", "Belgi\u00eb"], "location": {"type": "Point", "coordinates": [50.89155238050972, 4.445710120445959]}, "Type": ""}, {"nombre": "Serso", "direcci\u00f3n": ["Minervastraat 4", "1930 Zaventem", "Belgi\u00eb"], "location": {"type": "Point", "coordinates": [50.880855688329056, 4.451193091336329]}, "Type": ""}, {"nombre": "Lenovo", "direcci\u00f3n": ["Lambroekstraat 5", "1831 Diegem", "Belgi\u00eb"], "location": {"type": "Point", "coordinates": [50.88017815946824, 4.449231069734177]}, "Type": ""}, {"nombre": "Microsoft", "direcci\u00f3n": ["Leonardo Da Vincilaan 3", "1930 Zaventem", "Belgi\u00eb"], "location": {"type": "Point", "coordinates": [50.88838013015099, 4.459354332619708]}, "Type": ""}, {"nombre": "BNP Paribas Fortis Datacenter", "direcci\u00f3n": ["Raketstraat 98", "1130 Haren", "Belgi\u00eb"], "location": {"type": "Point", "coordinates": [50.88071818619712, 4.433371446485346]}, "Type": ""}, {"nombre": "Ascom Wireless Solutions Belgique", "direcci\u00f3n": ["Belgicastraat 11", "Belgi\u00eb"], "location": {"type": "Point", "coordinates": [50.87860160618627, 4.419811285621536]}, "Type": ""}, {"nombre": "Knack.be Newsroom", "direcci\u00f3n": ["Raketstraat 50", "1130 Brussel", "Belgi\u00eb"], "location": {"type": "Point", "coordinates": [50.87816429813743, 4.417897070352803]}, "Type": ""}, {"nombre": "Aastra Belgium", "direcci\u00f3n": ["Waterranonkelstraat 2b Rue de la Grenouillette", "1130 Brussel", "Belgi\u00eb"], "location": {"type": "Point", "coordinates": [50.882835241875675, 4.417154661729339]}, "Type": ""}, {"nombre": "Tech Mahindra Electrolux", "direcci\u00f3n": ["Belgi\u00eb"], "location": {"type": "Point", "coordinates": [50.877992019679475, 4.416277147846818]}, "Type": ""}, {"nombre": "TBC HQ", "direcci\u00f3n": ["Kraainem", "Belgi\u00eb"], "location": {"type": "Point", "coordinates": [50.86582400294851, 4.451973440265089]}, "Type": ""}, {"nombre": "Brussels Airlines Digital Department", "direcci\u00f3n": ["Belgi\u00eb"], "location": {"type": "Point", "coordinates": [50.89358708325461, 4.47858024071614]}, "Type": ""}, {"nombre": "Social Seeder", "direcci\u00f3n": ["Schaarbeeklei 647", "1800 Vilvoorde", "Belgi\u00eb"], "location": {"type": "Point", "coordinates": [50.908124, 4.415352]}, "Type": ""}, {"nombre": "OneTec", "direcci\u00f3n": ["rue JB Bauwens 1", "1140 Brussel (Evere)", "Belgi\u00eb"], "location": {"type": "Point", "coordinates": [50.87529699648114, 4.405198344776702]}, "Type": ""}, {"nombre": "Indev", "direcci\u00f3n": ["avenue du four \u00e0 briques 3C", "1140 Brussel", "Belgi\u00eb"], "location": {"type": "Point", "coordinates": [50.86600822776235, 4.411901235580444]}, "Type": ""}, {"nombre": "Pix-IT Solutions sprl", "direcci\u00f3n": ["Rue de Ransbeek 230", "1120 Brussel", "Belgi\u00eb"], "location": {"type": "Point", "coordinates": [50.90016566024384, 4.400434792041779]}, "Type": ""}, {"nombre": "Unique 3D Visual", "direcci\u00f3n": ["Kerkhof van Brussellaan 68 Avenue du Cimeti\u00e8re de Bruxelles", "1140 Brussel", "Belgi\u00eb"], "location": {"type": "Point", "coordinates": [50.861484742683466, 4.41601037979126]}, "Type": ""}, {"nombre": "Swan Insights HQ", "direcci\u00f3n": ["Gulledelle 94", "1200 Brussel", "Belgi\u00eb"], "location": {"type": "Point", "coordinates": [50.85593065785667, 4.42377673136301]}, "Type": ""}, {"nombre": "Paratel", "direcci\u00f3n": ["Luchthavenlaan 20", "1800 Vilvoorde", "Belgi\u00eb"], "location": {"type": "Point", "coordinates": [50.9236916796873, 4.440547597276863]}, "Type": ""}, {"nombre": "BASE Wholesale", "direcci\u00f3n": ["Belgi\u00eb"], "location": {"type": "Point", "coordinates": [50.85254180891946, 4.441950186675781]}, "Type": ""}, {"nombre": "Ingram Micro", "direcci\u00f3n": ["Luchthavenlaan 25a", "Vilvoorde", "Belgi\u00eb"], "location": {"type": "Point", "coordinates": [50.924103751964275, 4.440757127646344]}, "Type": ""}, {"nombre": "Cargill", "direcci\u00f3n": ["Havenstraat 84", "1800 Vilvoorde", "Belgi\u00eb"], "location": {"type": "Point", "coordinates": [50.921647787201046, 4.4227972625514775]}, "Type": ""}, {"nombre": "Level(3)", "direcci\u00f3n": ["L\u00e9on Grosjeanlaan 2", "Brussel", "Belgi\u00eb"], "location": {"type": "Point", "coordinates": [50.85768423831441, 4.4114251278284415]}, "Type": ""}, {"nombre": "Imago Group Benelux", "direcci\u00f3n": ["Hermesstraat 6B", "1930 Zaventem", "Belgi\u00eb"], "location": {"type": "Point", "coordinates": [50.875837144141684, 4.503343414559917]}, "Type": ""}, {"nombre": "Monsters'Lab", "direcci\u00f3n": ["Clos Chapelle-aux-Champs 30", "1200 Sint-Lambrechts-Woluwe", "Belgi\u00eb"], "location": {"type": "Point", "coordinates": [50.84976383949979, 4.449958555911386]}, "Type": ""}, {"nombre": "Unix-Solutions HQ", "direcci\u00f3n": ["Hoge Wei 37", "1930 Zaventem", "Belgi\u00eb"], "location": {"type": "Point", "coordinates": [50.875195918444014, 4.49927761304542]}, "Type": ""}, {"nombre": "Happy Monday", "direcci\u00f3n": ["Kraainemlaan, 33", "1950 Kraainem", "Belgi\u00eb"], "location": {"type": "Point", "coordinates": [50.850439, 4.462696]}, "Type": ""}, {"nombre": "Infodidac", "direcci\u00f3n": ["Avenue Mounier 100", "1200 Sint-Lambrechts-Woluwe", "Belgi\u00eb"], "location": {"type": "Point", "coordinates": [50.84942034994963, 4.460470134052122]}, "Type": ""}, {"nombre": "Collibra", "direcci\u00f3n": ["Belgi\u00eb"], "location": {"type": "Point", "coordinates": [50.88983953159672, 4.3807614050576715]}, "Type": ""}, {"nombre": "Screen Services", "direcci\u00f3n": ["Avenue Huart Hamoir 55", "1030 Brussel", "Belgi\u00eb"], "location": {"type": "Point", "coordinates": [50.87621356584366, 4.3820314120597965]}, "Type": ""}, {"nombre": "Pirlinsoft", "direcci\u00f3n": ["15 Boulevard L\u00e9opold III", "1030 Schaarbeek", "Belgi\u00eb"], "location": {"type": "Point", "coordinates": [50.85807662908811, 4.398928462102975]}, "Type": ""}, {"nombre": "Colt", "direcci\u00f3n": ["Mercuriusstraat 30", "1930 Zaventem", "Belgi\u00eb"], "location": {"type": "Point", "coordinates": [50.87175699974418, 4.503922153243538]}, "Type": ""}, {"nombre": "Hilarious : Digital Agency", "direcci\u00f3n": ["19 Avenue des volontaires", "1160 Brussel (Oudergem)", "Belgi\u00eb"], "location": {"type": "Point", "coordinates": [50.845138861954645, 4.4357112135022785]}, "Type": ""}, {"nombre": "Mezquita", "direcci\u00f3n": ["Lambermontlaan 418", "1030", "Belgi\u00eb"], "location": {"type": "Point", "coordinates": [50.86191562288938, 4.3883267316688235]}, "Type": ""}, {"nombre": "Vox Teneo", "direcci\u00f3n": ["Square Vergotesquare 34", "1030 Schaarbeek", "Belgi\u00eb"], "location": {"type": "Point", "coordinates": [50.84648161415631, 4.404130306224436]}, "Type": ""}, {"nombre": "Brain Tech Services", "direcci\u00f3n": ["Rue des Palais 153 (Rue Masui)", "1030 Brussel", "Belgi\u00eb"], "location": {"type": "Point", "coordinates": [50.87084272507325, 4.364769458770752]}, "Type": ""}]