[{"nombre": "EXKi", "direcci\u00f3n": ["Leopoldlaan", "1930 Zaventem", "Belgi\u00eb"], "location": {"type": "Point", "coordinates": [50.90214320374733, 4.481539215628921]}, "Type": ""}, {"nombre": "Fonteyne The Kitchen Woluwe", "direcci\u00f3n": ["Avenue Baron d'Huartlaan 27", "1150 Sint-Pieters-Woluwe-St-Pierre", "Belgi\u00eb"], "location": {"type": "Point", "coordinates": [50.838863751735865, 4.465950895541935]}, "Type": ""}, {"nombre": "sin street food", "direcci\u00f3n": ["Belgi\u00eb"], "location": {"type": "Point", "coordinates": [50.88846376135317, 4.458815599263641]}, "Type": ""}, {"nombre": "EXKi", "direcci\u00f3n": ["Rue St-Lambertusstraat 200", "1200 Sint-Lambrechts-Woluwe", "Belgi\u00eb"], "location": {"type": "Point", "coordinates": [50.844811107379755, 4.43709957431844]}, "Type": ""}, {"nombre": "EXKi", "direcci\u00f3n": ["Tongerenstraat 15 Rue des Tongres", "1040 Etterbeek", "Belgi\u00eb"], "location": {"type": "Point", "coordinates": [50.840073, 4.400109]}, "Type": ""}, {"nombre": "EXKi", "direcci\u00f3n": ["Departures (BRU Airport)", "1930 Zaventem", "Belgi\u00eb"], "location": {"type": "Point", "coordinates": [50.89792809275542, 4.482760149797]}, "Type": ""}, {"nombre": "Le Botaniste", "direcci\u00f3n": ["Brussel", "Belgi\u00eb"], "location": {"type": "Point", "coordinates": [50.844172, 4.38405]}, "Type": ""}, {"nombre": "Picadeli, bar \u00e0 salades", "direcci\u00f3n": ["Vilvoordelaan 92", "1930 Zaventem", "Belgi\u00eb"], "location": {"type": "Point", "coordinates": [50.889206, 4.471303]}, "Type": ""}, {"nombre": "Starbucks", "direcci\u00f3n": ["Departures (BRU Airport)", "1930 Zaventem", "Belgi\u00eb"], "location": {"type": "Point", "coordinates": [50.89781928444654, 4.482941446322682]}, "Type": ""}, {"nombre": "Eskape", "direcci\u00f3n": ["Trierstraat 22", "1000 Brussel", "Belgi\u00eb"], "location": {"type": "Point", "coordinates": [50.83834282654197, 4.37292055438852]}, "Type": ""}, {"nombre": "Spicy Grill", "direcci\u00f3n": ["Rue Stevin 102", "1000 Brussel", "Belgi\u00eb"], "location": {"type": "Point", "coordinates": [50.845, 4.38045]}, "Type": ""}, {"nombre": "El Turco", "direcci\u00f3n": ["Place de Londres 6", "1050 Elsene", "Belgi\u00eb"], "location": {"type": "Point", "coordinates": [50.8377, 4.36847]}, "Type": ""}, {"nombre": "Foodmaker", "direcci\u00f3n": ["Rue d'Arenbergstraat 18", "1000 Brussel", "Belgi\u00eb"], "location": {"type": "Point", "coordinates": [50.84825529562059, 4.356550951670125]}, "Type": ""}, {"nombre": "Dolma", "direcci\u00f3n": ["Elsensesteenweg 329 Chauss\u00e9e d'Ixelles (Rue Van Elewyck)", "1050 Elsene", "Belgi\u00eb"], "location": {"type": "Point", "coordinates": [50.82872726303548, 4.37043114782737]}, "Type": ""}, {"nombre": "Mr. Falafel", "direcci\u00f3n": ["Boulevard Maurice Lemonnierlaan 53", "1000 Brussel", "Belgi\u00eb"], "location": {"type": "Point", "coordinates": [50.84415110075447, 4.345317004980036]}, "Type": ""}, {"nombre": "Ami", "direcci\u00f3n": ["13 rue Lesbroussart", "1050 Elsene", "Belgi\u00eb"], "location": {"type": "Point", "coordinates": [50.82782251582942, 4.37046924649983]}, "Type": ""}, {"nombre": "Picadeli, bar \u00e0 salades", "direcci\u00f3n": ["Avenue Des Communaut\u00e9s 101", "1200 Sint-Lambrechts-Woluwe", "Belgi\u00eb"], "location": {"type": "Point", "coordinates": [50.85666, 4.427849]}, "Type": ""}, {"nombre": "9 et Voisins", "direcci\u00f3n": ["Rue Van Artevelde 1", "1000 Brussel", "Belgi\u00eb"], "location": {"type": "Point", "coordinates": [50.8488, 4.34741]}, "Type": ""}, {"nombre": "Pois Chiche", "direcci\u00f3n": ["Kapellemarkt 15", "1000 Brussel", "Belgi\u00eb"], "location": {"type": "Point", "coordinates": [50.84104, 4.351324]}, "Type": ""}, {"nombre": "Il Girasole", "direcci\u00f3n": ["Avenue du Cimeti\u00e8re de Bruxelles 17", "1140 Brussel (Evere)", "Belgi\u00eb"], "location": {"type": "Point", "coordinates": [50.8596, 4.4146]}, "Type": ""}, {"nombre": "Feux de Bengale", "direcci\u00f3n": ["Spoormakersstraat 69 Rue des Eperonniers", "1000 Brussel", "Belgi\u00eb"], "location": {"type": "Point", "coordinates": [50.845052835360384, 4.353127282349409]}, "Type": ""}, {"nombre": "Tich", "direcci\u00f3n": ["Naamsestraat 25 Rue de Namur", "1000 Brussel", "Belgi\u00eb"], "location": {"type": "Point", "coordinates": [50.84059855301643, 4.359854318732364]}, "Type": ""}, {"nombre": "CHYL Caf\u00e9", "direcci\u00f3n": ["Rue de Belle Vue 62", "1000 Brussel", "Belgi\u00eb"], "location": {"type": "Point", "coordinates": [50.81967861623238, 4.371315248362263]}, "Type": ""}, {"nombre": "Ozfair", "direcci\u00f3n": ["Avenue Jean Volderslaan 9", "1060 Sint-Gillis", "Belgi\u00eb"], "location": {"type": "Point", "coordinates": [50.8324417354158, 4.3430301819651085]}, "Type": ""}, {"nombre": "humus x hortense", "direcci\u00f3n": ["Rue de Vergniesstraat 2", "1050 Brussel", "Belgi\u00eb"], "location": {"type": "Point", "coordinates": [50.829472087846355, 4.37041862780211]}, "Type": ""}, {"nombre": "Chana - Pakora & Falafel", "direcci\u00f3n": ["Sint-Gillisvoorplein 24 Parvis de Saint-Gilles", "1060 Sint-Gillis", "Belgi\u00eb"], "location": {"type": "Point", "coordinates": [50.83072582699365, 4.345847070393958]}, "Type": ""}, {"nombre": "Cantine II", "direcci\u00f3n": ["Anspachlaan 65", "1000 Brussel", "Belgi\u00eb"], "location": {"type": "Point", "coordinates": [50.848889, 4.34983]}, "Type": ""}, {"nombre": "Le Bol de Riz", "direcci\u00f3n": ["335 Chauss\u00e9e de Wavre / 335 Wavresteenweg", "1040 Etterbeek", "Belgi\u00eb"], "location": {"type": "Point", "coordinates": [50.8364, 4.3804]}, "Type": ""}, {"nombre": "Greenway", "direcci\u00f3n": ["Avenue Fonsnylaan 47", "1060 Sint-Gillis", "Belgi\u00eb"], "location": {"type": "Point", "coordinates": [50.836239930578415, 4.33399701715218]}, "Type": ""}, {"nombre": "Les Nourritures Terrestres", "direcci\u00f3n": ["Sint-Gillisvoorplein 43 Parvis de Saint-Gilles", "1060 Sint-Gillis", "Belgi\u00eb"], "location": {"type": "Point", "coordinates": [50.8306690739057, 4.345622655357366]}, "Type": ""}, {"nombre": "Picadeli, bar \u00e0 salades", "direcci\u00f3n": ["Quai Des Usines Boite 85 / Cc Docks 163", "1000 Brussel", "Belgi\u00eb"], "location": {"type": "Point", "coordinates": [50.87947, 4.372902]}, "Type": ""}, {"nombre": "UN Bruxelles", "direcci\u00f3n": ["Place de Londres 8", "1050 Elsene", "Belgi\u00eb"], "location": {"type": "Point", "coordinates": [50.8379, 4.36847]}, "Type": ""}, {"nombre": "The Place To", "direcci\u00f3n": ["Place Colignonplein 16-18", "1030 Brussel (Schaarbeek)", "Belgi\u00eb"], "location": {"type": "Point", "coordinates": [50.86706, 4.373573]}, "Type": ""}, {"nombre": "Bio Shop Den Teepot", "direcci\u00f3n": ["Kartuizerstraat 66 Rue des Chartreux", "1000 Brussel", "Belgi\u00eb"], "location": {"type": "Point", "coordinates": [50.8486019842974, 4.3450613368817095]}, "Type": ""}, {"nombre": "\u00c7i\u011fk\u00f6ftem", "direcci\u00f3n": ["Chaussee d'Haecht", "1030 Brussel 1030", "Belgi\u00eb"], "location": {"type": "Point", "coordinates": [50.86111072337359, 4.371825521861977]}, "Type": ""}, {"nombre": "Picadeli, bar \u00e0 salades", "direcci\u00f3n": ["Rue Du Progr\u00e8s 80", "1030 Bruxelles", "Belgi\u00eb"], "location": {"type": "Point", "coordinates": [50.85976, 4.360285]}, "Type": ""}, {"nombre": "Vegasme", "direcci\u00f3n": ["Chauss\u00e9e de Waterloosesteenweg 367", "1050 Elsene", "Belgi\u00eb"], "location": {"type": "Point", "coordinates": [50.82196827682505, 4.355414357955768]}, "Type": ""}, {"nombre": "Yummy", "direcci\u00f3n": ["Wetstraat 19 Rue de la Loi", "1000 Brussel", "Belgi\u00eb"], "location": {"type": "Point", "coordinates": [50.845420533602194, 4.369527659518168]}, "Type": ""}, {"nombre": "Caf\u00e9 Doce Pimenta", "direcci\u00f3n": ["Chauss\u00e9e de Bruxelles 298", "1190 Vorst", "Belgi\u00eb"], "location": {"type": "Point", "coordinates": [50.8186, 4.32907]}, "Type": ""}, {"nombre": "Napul \u00e8", "direcci\u00f3n": ["Avenue d'Auderghem 56", "1040 Etterbeek", "Belgi\u00eb"], "location": {"type": "Point", "coordinates": [50.8392, 4.38584]}, "Type": ""}, {"nombre": "Picadeli, bar \u00e0 salades", "direcci\u00f3n": ["Chauss\u00e9e D'Etterbeek 27", "1000 Brussel", "Belgi\u00eb"], "location": {"type": "Point", "coordinates": [50.842986, 4.378015]}, "Type": ""}, {"nombre": "Seedz", "direcci\u00f3n": ["Belgi\u00eb"], "location": {"type": "Point", "coordinates": [50.816542, 4.353686]}, "Type": ""}, {"nombre": "C\u00f4t\u00e9 Jardin", "direcci\u00f3n": ["Quai aux Pierres de Taille 3", "Brussel", "Belgi\u00eb"], "location": {"type": "Point", "coordinates": [50.855314, 4.351972]}, "Type": ""}, {"nombre": "Picadeli, bar \u00e0 salades", "direcci\u00f3n": ["Rue Des Colonies 58-60", "1000 Brussel", "Belgi\u00eb"], "location": {"type": "Point", "coordinates": [50.847219, 4.361376]}, "Type": ""}, {"nombre": "The Judgy Vegan", "direcci\u00f3n": ["Kapucijnenstraat 55 Rue des Capucins", "1000 Brussel", "Belgi\u00eb"], "location": {"type": "Point", "coordinates": [50.837752, 4.348377]}, "Type": ""}, {"nombre": "Yummy Bowl", "direcci\u00f3n": ["rue des \u00e9peronniers 49", "1000 Brussel", "Belgi\u00eb"], "location": {"type": "Point", "coordinates": [50.845356, 4.353351]}, "Type": ""}, {"nombre": "The Foodmaker", "direcci\u00f3n": ["Belgi\u00eb"], "location": {"type": "Point", "coordinates": [50.84779, 4.349946]}, "Type": ""}, {"nombre": "Picadeli, bar \u00e0 salades", "direcci\u00f3n": ["Boulevard Anspach  19", "1000 Brussel", "Belgi\u00eb"], "location": {"type": "Point", "coordinates": [50.850105, 4.351127]}, "Type": ""}, {"nombre": "Poke Club", "direcci\u00f3n": ["Rue de la Digue 33", "1050 Elsene", "Belgi\u00eb"], "location": {"type": "Point", "coordinates": [50.8283, 4.37452]}, "Type": ""}, {"nombre": "Lukafraismaison", "direcci\u00f3n": ["Chauss\u00e9e d'Ixelles 260", "1050 Elsene", "Belgi\u00eb"], "location": {"type": "Point", "coordinates": [50.8301, 4.36968]}, "Type": ""}, {"nombre": "'t Alternatives", "direcci\u00f3n": ["Avenue de Jette 284", "1090 Jette", "Belgi\u00eb"], "location": {"type": "Point", "coordinates": [50.8721, 4.32412]}, "Type": ""}, {"nombre": "Picadeli, bar \u00e0 salades", "direcci\u00f3n": ["Chauss\u00e9e De Waterloo 87", "1060 Sint-Gillis", "Belgi\u00eb"], "location": {"type": "Point", "coordinates": [50.829436, 4.344227]}, "Type": ""}, {"nombre": "The Wild Lab", "direcci\u00f3n": ["Rue Antoine Br\u00e9artstraat 44a", "1060", "Belgi\u00eb"], "location": {"type": "Point", "coordinates": [50.823641, 4.348088]}, "Type": ""}, {"nombre": "clar's kitchen", "direcci\u00f3n": ["Belgi\u00eb"], "location": {"type": "Point", "coordinates": [50.793710243627885, 4.365379067984044]}, "Type": ""}, {"nombre": "La Mozzarella", "direcci\u00f3n": ["Avenue Brugman 522", "1180 Brussel (Ukkel)", "Belgi\u00eb"], "location": {"type": "Point", "coordinates": [50.80066664855905, 4.337869584560394]}, "Type": ""}, {"nombre": "'t Groentehalleke", "direcci\u00f3n": ["Hombeekseweg 26", "1880 Kapelle-op-den-Bos", "Belgi\u00eb"], "location": {"type": "Point", "coordinates": [51.011949920583355, 4.379824292092111]}, "Type": ""}, {"nombre": "Meeneemchinees Smets", "direcci\u00f3n": ["Belgi\u00eb"], "location": {"type": "Point", "coordinates": [50.787226, 4.596527]}, "Type": ""}, {"nombre": "Picadeli, bar \u00e0 salades", "direcci\u00f3n": ["Autostrade Zuid E40", "3001 Leuven", "Belgi\u00eb"], "location": {"type": "Point", "coordinates": [50.8527, 4.657156]}, "Type": ""}, {"nombre": "Picadeli, bar \u00e0 salades", "direcci\u00f3n": ["Jansbergsesteenweg 403 (> Brussel)", "3001 Heverlee", "Belgi\u00eb"], "location": {"type": "Point", "coordinates": [50.85350662921633, 4.660305976867676]}, "Type": ""}]